,City_Country,Temperature (F),Humidity (%),Cloudiness (%),Wind Speed (mph),Lat,Lng
2,"hithadhoo,mv",82.51,100.0,80.0,5.21,-0.6,73.08
3,"malindi,ke",79.49,87.0,0.0,14.56,-3.22,40.12
4,"kakonko,tz",61.4,93.0,48.0,6.06,-3.28,30.97
5,"penalva,br",79.9,82.0,92.0,4.61,-3.29,-45.17
6,"iquitos,pe",78.8,88.0,75.0,3.36,-3.75,-73.25
8,"hambantota,lk",78.01,100.0,32.0,13.04,6.12,81.12
9,"nabire,id",77.06,87.0,36.0,2.59,-3.36,135.5
10,"codajas,br",77.2,94.0,32.0,2.3,-3.84,-62.06
11,"bandundu,cd",72.83,98.0,76.0,3.04,-3.32,17.38
12,"touros,br",78.55,90.0,88.0,9.75,-5.2,-35.46
13,"tabou,ci",81.47,97.0,0.0,5.06,4.42,-7.36
15,"auki,sb",81.65,100.0,12.0,2.37,-8.77,160.7
16,"vanimo,pg",83.72,100.0,56.0,6.62,-2.67,141.3
17,"manacapuru,br",74.9,98.0,68.0,1.25,-3.3,-60.62
18,"sungaipenuh,id",66.44,95.0,44.0,1.07,-2.08,101.38
19,"gamba,ga",78.05,100.0,80.0,3.2,-2.72,10.02
20,"sao paulo de olivenca,br",79.58,86.0,32.0,2.98,-3.38,-68.87
21,"mushie,cd",71.71,100.0,64.0,2.3,-3.02,16.92
22,"sibolga,id",68.83,100.0,92.0,1.81,1.74,98.78
24,"georgetown,sh",75.17,100.0,92.0,15.84,-7.93,-14.42
25,"faanui,pf",83.45,100.0,12.0,14.83,-16.48,-151.75
26,"monduli,tz",77.0,73.0,20.0,3.53,-3.3,36.45
27,"puerto ayora,ec",78.8,61.0,20.0,17.22,-0.74,-90.35
28,"padang,id",79.49,100.0,44.0,1.03,-0.92,100.36
29,"voi,ke",66.98,59.0,32.0,3.98,-3.4,38.57
30,"atuona,pf",79.9,100.0,12.0,11.77,-9.8,-139.03
32,"kendari,id",85.07,62.0,24.0,4.09,-3.99,122.52
33,"tefe,br",78.8,83.0,0.0,9.17,-3.35,-64.71
34,"angoram,pg",83.5,82.0,44.0,2.71,-4.06,144.07
36,"lorengau,pg",83.99,97.0,88.0,5.84,-2.02,147.27
37,"namatanai,pg",85.25,94.0,80.0,8.34,-3.66,152.44
38,"kavieng,pg",84.71,99.0,76.0,7.11,-2.57,150.8
39,"victoria,sc",77.0,88.0,75.0,2.24,-4.62,55.45
40,"barabai,id",79.4,88.0,8.0,2.71,-2.59,115.38
41,"pasaje,ec",77.0,78.0,90.0,4.7,-3.33,-79.81
43,"mto wa mbu,tz",70.13,59.0,12.0,11.59,-3.38,35.86
44,"palembang,id",77.0,94.0,20.0,3.87,-2.99,104.76
45,"uvira,cd",61.58,100.0,36.0,2.04,-3.41,29.14
46,"buala,sb",85.3,84.0,8.0,3.31,-8.15,159.59
47,"qaanaaq,gl",-9.25,99.0,0.0,10.36,77.48,-69.36
48,"barrow,us",31.06,63.0,1.0,8.05,39.51,-90.4
49,"dikson,ru",2.41,100.0,76.0,26.24,73.51,80.55
51,"berlevag,no",8.48,100.0,12.0,3.71,70.86,29.09
52,"upernavik,gl",13.03,100.0,88.0,6.73,72.79,-56.15
55,"narsaq,gl",26.6,45.0,0.0,4.7,60.91,-46.05
56,"longyearbyen,sj",30.2,68.0,75.0,9.17,78.22,15.64
59,"pevek,ru",-10.33,100.0,88.0,7.07,69.7,170.27
60,"khatanga,ru",-34.68,0.0,0.0,4.88,71.98,102.47
61,"vardo,no",24.95,100.0,0.0,10.8,70.37,31.11
62,"yellowknife,ca",-13.01,75.0,20.0,9.17,62.45,-114.38
64,"tiksi,ru",-15.96,70.0,76.0,5.84,71.64,128.87
65,"chokurdakh,ru",-2.05,83.0,88.0,19.42,70.62,147.9
67,"saskylakh,ru",-14.56,67.0,32.0,8.9,71.97,114.09
68,"tuktoyaktuk,ca",7.2,84.0,40.0,13.87,69.44,-133.03
69,"cherskiy,ru",-23.47,68.0,80.0,6.85,68.75,161.3
70,"santa fe,cu",75.2,73.0,20.0,8.05,23.13,-82.26
71,"kapaa,us",73.4,78.0,40.0,14.99,22.08,-159.32
72,"kundla,in",51.95,84.0,0.0,4.54,21.34,71.31
73,"mecca,sa",73.4,78.0,0.0,2.75,21.43,39.83
74,"marawi,sd",60.32,53.0,20.0,3.09,18.48,31.82
75,"bathsheba,bb",78.8,78.0,40.0,17.22,13.22,-59.52
76,"baracoa,cu",77.69,100.0,80.0,13.38,20.35,-74.5
77,"deogarh,in",48.17,81.0,0.0,2.59,21.53,84.72
78,"nishihara,jp",41.97,78.0,40.0,3.83,35.74,139.53
79,"the valley,ai",78.8,78.0,20.0,12.75,18.22,-63.06
81,"nilagiri,in",59.38,99.0,0.0,6.4,21.46,86.77
82,"ponta do sol,cv",72.56,100.0,36.0,22.06,17.2,-25.09
83,"taoudenni,ml",51.05,31.0,0.0,15.35,22.68,-3.98
84,"butaritari,ki",83.41,98.0,24.0,17.85,3.07,172.79
85,"naze,jp",68.0,82.0,75.0,10.29,28.37,129.48
86,"dwarka,in",50.0,81.0,0.0,2.71,28.58,77.04
87,"baleshwar,in",59.38,99.0,0.0,6.4,21.5,86.92
90,"arlit,ne",56.54,35.0,0.0,9.64,18.74,7.39
91,"cockburn town,tc",78.41,100.0,0.0,16.17,21.46,-71.14
92,"teknaf,bd",60.41,99.0,0.0,3.38,20.86,92.31
93,"nouadhibou,mr",60.8,67.0,56.0,19.46,20.93,-17.03
94,"hilo,us",70.88,50.0,1.0,11.41,19.71,-155.08
95,"sawakin,sd",71.12,95.0,0.0,10.8,19.1,37.33
96,"vega de alatorre,mx",66.71,84.0,32.0,12.82,20.03,-96.65
97,"todos santos,mx",75.2,41.0,75.0,13.87,23.45,-110.23
98,"san diego de la union,mx",59.2,62.0,8.0,5.88,21.47,-100.87
99,"taunggyi,mm",38.5,83.0,0.0,2.26,20.78,97.03
101,"riyadh,sa",53.6,34.0,0.0,2.24,24.63,46.72
102,"aiea,us",79.25,45.0,75.0,16.11,21.38,-157.93
103,"ishigaki,jp",69.8,94.0,40.0,2.24,24.34,124.16
104,"road town,vg",78.8,74.0,40.0,9.17,18.42,-64.62
105,"kosamba,in",58.03,88.0,0.0,2.59,21.48,72.95
106,"katsuura,jp",39.2,80.0,75.0,8.05,33.93,134.5
107,"sur,om",68.69,100.0,0.0,3.6,22.57,59.53
108,"jiazi,cn",66.2,88.0,32.0,8.95,19.61,110.49
109,"trinidad,cu",75.2,78.0,20.0,1.12,21.81,-79.98
110,"makaha,us",79.29,64.0,90.0,13.87,21.47,-158.22
111,"viet tri,vn",62.6,77.0,75.0,6.93,21.3,105.43
112,"san blas,mx",77.0,65.0,90.0,6.93,21.54,-105.29
113,"constitucion,mx",73.4,23.0,90.0,2.98,23.99,-104.67
114,"iralaya,hn",77.0,88.0,40.0,10.36,15.0,-83.23
118,"cayenne,gf",75.2,100.0,100.0,1.12,4.94,-52.33
119,"les cayes,ht",80.48,100.0,0.0,11.36,18.19,-73.75
120,"yarada,in",75.62,100.0,76.0,8.12,17.65,83.27
122,"pointe michel,dm",80.08,92.0,68.0,19.08,15.25,-61.38
123,"ati,td",74.05,26.0,0.0,11.77,13.21,18.34
124,"narasannapeta,in",56.95,99.0,0.0,3.09,18.42,84.04
125,"porto novo,cv",71.6,60.0,75.0,18.34,17.02,-25.06
126,"sokolo,ml",54.47,38.0,20.0,13.82,14.74,-6.12
128,"sainte-marie,mq",77.0,83.0,40.0,11.41,14.78,-60.99
129,"lop buri,th",70.81,67.0,0.0,11.54,14.8,100.65
130,"tanout,ne",64.37,36.0,64.0,16.4,14.97,8.88
131,"oranjestad,aw",80.6,78.0,20.0,16.11,12.52,-70.03
132,"moussoro,td",70.18,32.0,8.0,12.77,13.64,16.49
134,"pout,sn",66.2,68.0,80.0,6.93,14.77,-17.06
135,"teseney,er",61.94,27.0,0.0,8.23,15.11,36.66
136,"salina cruz,mx",81.83,51.0,0.0,19.3,16.18,-95.2
137,"cabo san lucas,mx",75.2,41.0,75.0,13.87,22.89,-109.91
138,"tenenkou,ml",58.7,47.0,0.0,13.82,14.46,-4.91
139,"acapulco,mx",84.2,79.0,40.0,5.82,16.86,-99.88
142,"khombole,sn",67.07,38.0,80.0,11.77,14.76,-16.69
143,"vila do maio,cv",71.6,64.0,40.0,23.04,15.13,-23.22
144,"yarim,ye",25.36,59.0,0.0,3.04,14.3,44.38
145,"pandan,ph",80.66,100.0,36.0,18.41,11.72,122.09
146,"charlestown,kn",78.12,65.0,20.0,11.41,17.13,-62.62
148,"sinnamary,gf",77.24,100.0,88.0,7.74,5.38,-52.96
149,"salalah,om",77.0,20.0,0.0,18.34,17.01,54.1
150,"lahij,ye",55.51,91.0,0.0,4.99,13.06,44.88
151,"palauig,ph",81.02,82.0,0.0,5.32,15.44,119.9
152,"san andres,co",82.4,83.0,40.0,10.29,8.22,-76.58
153,"kassala,sd",55.96,40.0,0.0,3.04,15.45,36.38
154,"det udom,th",64.4,100.0,0.0,14.16,14.9,105.08
155,"umm kaddadah,sd",59.78,43.0,0.0,7.85,13.6,26.69
156,"coahuayana,mx",79.58,37.0,24.0,2.08,18.62,-100.35
157,"praia,cv",71.6,64.0,40.0,23.04,14.92,-23.51
158,"punta arenas,cl",53.6,54.0,75.0,32.21,-53.16,-70.91
159,"avarua,ck",80.6,61.0,75.0,12.75,-21.21,-159.78
160,"saint-philippe,re",73.4,69.0,0.0,5.82,-21.36,55.77
161,"port alfred,za",64.73,100.0,0.0,6.22,-33.59,26.89
162,"port elizabeth,za",62.6,82.0,20.0,3.36,-33.92,25.57
163,"mar del plata,ar",65.27,37.0,76.0,22.66,-46.43,-67.52
164,"vaini,to",73.4,94.0,90.0,23.85,-21.2,-175.2
165,"busselton,au",67.66,100.0,0.0,14.79,-33.64,115.35
166,"new norfolk,au",60.8,80.0,56.0,18.34,-42.78,147.06
167,"ushuaia,ar",53.6,54.0,75.0,9.17,-54.81,-68.31
168,"bredasdorp,za",60.8,72.0,56.0,2.24,-34.53,20.04
169,"chuy,uy",67.3,90.0,92.0,26.08,-33.69,-53.46
170,"cape town,za",60.8,77.0,0.0,8.05,-33.93,18.42
171,"bluff,nz",67.25,77.0,0.0,12.55,-46.6,168.33
172,"hermanus,za",50.83,99.0,0.0,2.48,-34.42,19.24
173,"kaitangata,nz",74.54,52.0,0.0,7.74,-46.28,169.85
174,"arraial do cabo,br",78.01,83.0,0.0,23.33,-22.97,-42.02
176,"rikitea,pf",77.83,100.0,20.0,4.99,-23.12,-134.97
177,"castro,cl",51.73,76.0,76.0,4.88,-42.48,-73.76
178,"jamestown,sh",68.38,100.0,88.0,15.84,-15.94,-5.72
179,"cidreira,br",70.31,100.0,92.0,2.71,-30.17,-50.22
180,"east london,za",68.78,100.0,92.0,3.09,-33.02,27.91
181,"albany,au",63.7,79.0,20.0,8.79,-35.02,117.88
182,"hobart,au",60.8,64.0,56.0,18.34,-42.88,147.33
184,"tuatapere,nz",67.7,68.0,68.0,14.9,-46.13,167.69
186,"nome,us",49.57,76.0,1.0,6.93,30.04,-94.42
187,"yar-sale,ru",17.71,97.0,88.0,15.61,66.83,70.83
188,"ostrovnoy,ru",13.21,73.0,68.0,7.34,68.05,39.51
189,"pyaozerskiy,ru",20.5,86.0,88.0,6.29,65.83,31.17
190,"qaqortoq,gl",26.6,45.0,12.0,4.7,60.72,-46.03
191,"iqaluit,ca",-18.41,68.0,20.0,4.7,63.75,-68.52
192,"egvekinot,ru",4.52,82.0,24.0,4.27,66.32,-179.17
193,"igarka,ru",4.16,80.0,80.0,21.54,67.47,86.57
194,"verkhoyansk,ru",-42.64,0.0,64.0,3.27,67.55,133.39
195,"pangnirtung,ca",-14.92,67.0,8.0,3.38,66.15,-65.72
196,"beisfjord,no",32.0,97.0,75.0,3.36,68.38,17.6
197,"tasiilaq,gl",21.2,79.0,56.0,12.75,65.61,-37.64
198,"klaksvik,fo",41.0,75.0,92.0,11.41,62.23,-6.59
199,"bilibino,ru",-29.77,46.0,76.0,2.82,68.06,166.44
200,"deputatskiy,ru",-20.14,82.0,48.0,7.52,69.3,139.9
201,"aksarka,ru",16.22,87.0,92.0,10.92,66.56,67.8
202,"turukhansk,ru",0.61,73.0,76.0,16.96,65.8,87.96
203,"tura,ru",-24.37,71.0,8.0,2.48,64.27,100.22
204,"rorvik,no",38.05,100.0,92.0,20.09,64.86,11.24
205,"straumen,no",35.6,91.0,90.0,11.41,63.87,11.3
206,"svetlogorsk,ru",3.2,84.0,40.0,11.18,53.14,59.15
207,"komsomolskiy,ru",18.25,87.0,80.0,7.9,67.55,63.78
208,"husavik,is",30.2,80.0,90.0,9.17,66.04,-17.34
209,"college,us",-8.87,83.0,1.0,9.53,64.86,-147.8
211,"thompson,ca",-27.41,67.0,5.0,10.29,55.74,-97.86
212,"fairbanks,us",-8.85,83.0,1.0,9.53,64.84,-147.72
214,"leshukonskoye,ru",22.88,87.0,88.0,4.21,64.9,45.76
215,"zhigansk,ru",-40.84,92.0,24.0,4.99,66.77,123.37
216,"staryy nadym,ru",18.16,90.0,80.0,14.45,65.61,72.68
218,"qasigiannguit,gl",17.6,67.0,64.0,12.75,68.82,-51.19
219,"belaya gora,ru",-11.1,74.0,76.0,13.44,68.54,146.19
221,"srednekolymsk,ru",-12.94,60.0,64.0,7.4,67.46,153.71
222,"zyryanka,ru",-11.23,55.0,64.0,8.52,65.73,150.89
223,"verkhnyaya inta,ru",18.2,78.0,76.0,3.09,65.99,60.32
224,"batagay,ru",-45.16,0.0,44.0,3.83,67.65,134.64
225,"nyurba,ru",-37.83,76.0,0.0,3.6,63.29,118.35
226,"lavrentiya,ru",32.42,91.0,92.0,26.91,65.58,-170.99
227,"mayo,ca",-27.41,74.0,20.0,2.59,63.59,-135.9
228,"kuusamo,fi",15.8,85.0,90.0,6.93,65.96,29.19
229,"alakurtti,ru",14.11,80.0,92.0,3.87,66.96,30.34
230,"lovozero,ru",2.0,55.0,56.0,1.36,68.01,35.02
232,"ilulissat,gl",17.6,67.0,64.0,12.75,69.22,-51.1
233,"talnakh,ru",-7.72,77.0,76.0,11.03,69.49,88.39
234,"aklavik,ca",12.94,92.0,40.0,9.17,68.22,-135.01
235,"mehamn,no",17.6,72.0,0.0,8.05,71.03,27.85
236,"norman wells,ca",-2.21,84.0,20.0,4.7,65.28,-126.83
237,"mahebourg,mu",73.4,94.0,20.0,6.93,-20.41,57.7
239,"port lincoln,au",64.6,87.0,36.0,21.54,-34.72,135.86
240,"viedma,ar",59.33,37.0,0.0,2.19,-40.81,-62.99
241,"saldanha,za",59.0,77.0,0.0,3.36,-33.01,17.94
242,"te anau,nz",67.07,50.0,24.0,10.58,-45.41,167.72
243,"portland,au",81.74,50.0,0.0,3.27,-33.35,149.98
244,"souillac,mu",73.4,94.0,20.0,6.93,-20.52,57.52
245,"san carlos de bariloche,ar",59.0,44.0,0.0,23.04,-41.13,-71.31
246,"methven,nz",74.36,79.0,0.0,3.71,-43.63,171.65
248,"esperance,au",65.23,72.0,0.0,11.14,-33.86,121.89
249,"rawson,ar",63.88,26.0,0.0,5.61,-43.3,-65.11
250,"rocha,uy",62.84,65.0,88.0,17.63,-34.48,-54.34
251,"mount gambier,au",63.88,61.0,8.0,6.85,-37.83,140.78
252,"oxford,nz",75.2,53.0,0.0,10.29,-43.29,172.2
253,"talcahuano,cl",62.6,51.0,0.0,18.34,-36.72,-73.12
254,"bambous virieux,mu",73.4,94.0,20.0,6.93,-20.34,57.76
255,"richards bay,za",69.86,95.0,68.0,6.55,-28.77,32.06
256,"margate,za",70.58,95.0,92.0,8.08,-30.86,30.37
258,"valparaiso,cl",64.4,59.0,0.0,10.29,-33.04,-71.63
259,"carnarvon,au",77.56,87.0,8.0,20.2,-24.87,113.63
260,"flinders,au",84.2,37.0,44.0,2.71,-34.58,150.85
261,"san francisco,ar",69.68,69.0,0.0,13.56,-31.43,-62.08
262,"vredendal,za",52.45,92.0,44.0,1.74,-31.68,18.49
263,"ahipara,nz",68.24,89.0,92.0,11.36,-35.17,173.16
264,"port augusta,au",69.8,64.0,75.0,21.92,-32.49,137.76
265,"parana,ar",68.87,82.0,0.0,15.12,-31.73,-60.52
266,"geraldton,au",73.4,73.0,40.0,6.93,-28.77,114.6
267,"luderitz,na",59.0,77.0,0.0,9.17,-26.65,15.16
268,"san juan,ar",89.6,32.0,0.0,26.4,-31.54,-68.53
269,"lebu,cl",54.83,94.0,0.0,23.33,-37.62,-73.65
270,"vila velha,br",80.6,78.0,75.0,9.17,-3.71,-38.6
271,"alta gracia,ar",69.8,52.0,0.0,13.87,-31.66,-64.43
272,"griffith,au",87.1,36.0,92.0,8.41,-34.29,146.06
273,"dubbo,au",95.0,21.0,0.0,23.04,-32.25,148.6
274,"sao joao da barra,br",78.28,98.0,0.0,27.65,-21.64,-41.05
275,"port macquarie,au",86.0,55.0,0.0,4.7,-31.43,152.91
276,"muswellbrook,au",89.03,51.0,20.0,7.78,-32.27,150.89
277,"northam,au",68.0,52.0,0.0,8.05,-31.65,116.67
278,"constitucion,cl",56.72,84.0,0.0,16.13,-35.33,-72.42
279,"umtata,za",62.6,93.0,88.0,5.82,-31.59,28.78
280,"alofi,nu",80.6,69.0,92.0,10.29,-19.06,-169.92
281,"ballina,au",79.94,91.0,0.0,6.4,-28.87,153.57
282,"kruisfontein,za",60.77,89.0,0.0,6.51,-34.0,24.73
283,"rio grande,br",70.67,100.0,92.0,12.82,-32.03,-52.1
284,"carahue,cl",56.41,82.0,0.0,11.81,-38.71,-73.16
285,"punta alta,ar",75.2,83.0,75.0,9.17,-27.46,-55.82
286,"hokitika,nz",65.99,90.0,12.0,4.99,-42.72,170.96
287,"tres arroyos,ar",57.58,43.0,0.0,7.07,-38.38,-60.28
288,"neuquen,ar",73.4,53.0,0.0,8.05,-38.95,-68.06
289,"takaka,nz",62.71,100.0,92.0,5.77,-40.86,172.81
290,"ancud,cl",52.9,68.0,68.0,4.61,-41.87,-73.83
291,"bahia blanca,ar",65.45,60.0,0.0,8.57,-38.72,-62.27
292,"crib point,au",63.43,100.0,12.0,12.03,-38.35,145.2
293,"sale,au",66.62,72.0,0.0,8.3,-38.11,147.06
294,"batemans bay,au",77.96,63.0,88.0,4.05,-35.71,150.18
295,"lakes entrance,au",65.95,88.0,44.0,12.33,-37.88,147.99
296,"okato,nz",66.44,96.0,68.0,10.87,-39.19,173.88
297,"timmins,ca",12.2,78.0,90.0,9.17,48.48,-81.33
298,"bethel,us",37.4,74.0,75.0,24.16,60.79,-161.76
299,"atasu,kz",17.48,75.0,92.0,9.57,48.68,71.64
300,"gukovo,ru",17.53,82.0,0.0,5.39,48.05,39.94
301,"lysa hora,ua",24.59,92.0,88.0,18.7,51.6,32.95
302,"torbay,ca",24.8,85.0,90.0,8.05,47.66,-52.73
303,"la tuque,ca",18.25,95.0,88.0,3.83,47.44,-72.79
304,"provideniya,ru",26.84,100.0,88.0,18.52,64.42,-173.23
305,"zaysan,kz",-12.81,54.0,0.0,2.19,47.47,84.87
306,"smidovich,ru",-0.97,79.0,76.0,3.31,48.6,133.81
307,"cap-aux-meules,ca",30.2,68.0,90.0,21.92,47.38,-61.86
308,"galanta,sk",45.09,76.0,75.0,12.75,48.19,17.73
309,"altay,cn",-13.3,50.0,12.0,2.26,47.83,88.13
310,"lagoa,pt",53.6,87.0,40.0,6.93,37.14,-8.45
311,"plouzane,fr",47.3,100.0,90.0,5.82,48.38,-4.62
312,"nikolskoye,ru",33.8,92.0,90.0,13.42,59.7,30.79
313,"svetlaya,ru",19.96,100.0,20.0,4.5,46.54,138.33
314,"zhezkazgan,kz",20.27,88.0,92.0,7.0,47.8,67.71
315,"channel-port aux basques,ca",34.58,100.0,76.0,24.4,47.57,-59.14
316,"moron,mn",-12.63,52.0,0.0,7.29,47.38,110.32
317,"sigmaringen,de",39.72,93.0,90.0,10.29,48.09,9.22
318,"riviere-du-loup,ca",21.98,100.0,92.0,8.08,47.83,-69.53
319,"himberg,at",39.8,87.0,0.0,18.7,48.31,15.49
320,"ulaangom,mn",-13.98,52.0,44.0,1.86,49.98,92.07
321,"dingle,ie",51.68,94.0,92.0,22.39,52.14,-10.27
322,"kodiak,us",24.8,73.0,20.0,9.17,39.95,-94.76
323,"ternuvate,ua",30.2,92.0,75.0,4.47,47.83,36.13
324,"bemidji,us",15.8,85.0,90.0,12.75,47.48,-94.89
325,"kalispell,us",6.8,71.0,1.0,4.7,48.2,-114.32
326,"minot,us",14.61,72.0,90.0,10.29,48.23,-101.3
327,"kungurtug,ru",-3.76,62.0,56.0,2.53,50.6,97.53
328,"rozsypne,ua",18.65,82.0,24.0,6.85,48.13,38.57
329,"praia da vitoria,pt",62.6,88.0,40.0,19.15,38.73,-27.07
330,"nizhniy baskunchak,ru",17.35,89.0,92.0,5.55,48.22,46.83
333,"poronaysk,ru",1.1,90.0,76.0,2.71,49.22,143.1
334,"vostok,ru",3.08,70.0,36.0,2.08,46.45,135.83
336,"tambovka,ru",19.78,94.0,92.0,6.55,47.32,47.38
337,"mukhen,ru",15.46,73.0,56.0,4.09,48.19,136.14
338,"manzhouli,cn",-8.89,61.0,0.0,8.57,49.6,117.43
339,"kirkland lake,ca",17.6,100.0,90.0,3.36,48.15,-80.03
340,"novomykolayivka,ua",25.85,91.0,36.0,10.02,48.54,32.26
341,"erdenet,mn",-7.86,55.0,48.0,2.75,49.03,104.04
342,"sitka,us",31.88,55.0,0.0,11.92,37.17,-99.65
344,"petropavlovsk-kamchatskiy,ru",-0.41,77.0,8.0,6.71,53.05,158.65
345,"assiniboia,ca",15.01,76.0,68.0,15.12,49.63,-105.99
346,"spokane,us",23.02,53.0,1.0,3.36,47.66,-117.42
347,"los algarrobos,pa",84.2,70.0,40.0,9.17,8.5,-82.43
348,"makakilo city,us",79.25,54.0,75.0,3.36,21.35,-158.09
349,"kulhudhuffushi,mv",81.83,100.0,76.0,11.03,6.62,73.07
350,"goba,et",32.69,72.0,0.0,2.26,7.01,39.97
353,"el carmen,co",67.79,87.0,68.0,2.71,8.51,-73.45
354,"kalmunai,lk",70.63,95.0,20.0,6.29,7.42,81.82
355,"kloulklubed,pw",82.35,79.0,20.0,10.31,7.04,134.26
356,"upata,ve",74.23,75.0,80.0,6.78,8.02,-62.41
357,"bossangoa,cf",69.68,77.0,0.0,2.82,6.5,17.45
358,"trairi,br",80.03,100.0,92.0,14.67,-3.28,-39.27
359,"daloa,ci",65.05,67.0,0.0,2.59,6.88,-6.45
360,"mabaruma,gy",78.46,85.0,68.0,8.01,8.2,-59.78
361,"sadao,th",75.88,100.0,75.0,4.7,6.63,100.42
362,"otukpo,ng",76.7,80.0,24.0,10.36,7.19,8.13
363,"cravo norte,co",88.94,43.0,76.0,11.59,6.3,-70.2
364,"bozoum,cf",73.46,56.0,0.0,2.48,6.31,16.38
365,"sabang,id",83.99,97.0,0.0,3.27,1.17,120.82
367,"bonga,et",48.58,77.0,0.0,1.97,7.26,36.25
368,"champerico,gt",87.8,52.0,40.0,9.17,14.3,-91.92
369,"san patricio,mx",84.2,79.0,40.0,5.82,19.22,-104.7
370,"toumodi,ci",68.0,72.0,0.0,0.96,6.56,-5.02
371,"puerto escondido,mx",82.4,78.0,75.0,4.7,15.86,-97.07
372,"lhokseumawe,id",74.54,100.0,88.0,1.07,5.18,97.15
373,"wendo,et",41.87,82.0,0.0,3.53,6.6,38.42
374,"bubaque,gw",71.6,37.0,0.0,9.17,11.28,-15.83
375,"hobyo,so",76.03,83.0,80.0,22.44,5.35,48.53
376,"columbio,ph",75.8,100.0,24.0,4.05,6.63,124.97
377,"ciudad bolivar,ve",80.57,65.0,36.0,13.27,8.12,-63.55
378,"bandarbeyla,so",76.43,100.0,0.0,24.4,9.49,50.81
379,"kudat,my",75.2,100.0,90.0,2.71,6.89,116.84
380,"pedasi,pa",83.41,95.0,0.0,14.27,7.53,-80.03
381,"mizan teferi,et",54.11,73.0,0.0,2.3,6.99,35.58
382,"ca mau,vn",74.41,100.0,0.0,5.84,9.18,105.15
384,"nanakuli,us",79.27,64.0,90.0,13.87,21.39,-158.15
385,"ixtapa,mx",78.8,83.0,90.0,9.17,20.71,-105.21
386,"kankon,in",82.06,97.0,0.0,5.84,15.02,74.02
389,"manaure,co",84.2,70.0,0.0,4.7,11.78,-72.45
390,"yanam,in",68.15,84.0,0.0,5.61,16.73,82.22
391,"chateaubelair,vc",80.6,74.0,40.0,18.34,13.28,-61.25
392,"markala,ml",58.7,43.0,0.0,11.14,13.69,-6.07
393,"kavaratti,in",83.23,99.0,0.0,9.91,10.57,72.64
394,"micoud,lc",79.66,74.0,40.0,18.34,13.82,-60.9
395,"phra pradaeng,th",75.2,60.0,0.0,5.82,13.66,100.53
396,"zinder,ne",62.98,47.0,24.0,13.67,13.81,8.99
397,"port blair,in",82.01,100.0,0.0,14.34,11.67,92.75
398,"brufut,gm",69.8,35.0,20.0,10.29,13.38,-16.75
399,"doka,sd",60.91,54.0,0.0,1.25,13.52,35.76
400,"san,ml",59.11,48.0,0.0,10.13,13.3,-4.9
401,"dawei,mm",72.02,76.0,0.0,3.27,14.07,98.19
402,"aksum,et",31.25,61.0,0.0,2.75,14.12,38.72
403,"barra,gm",69.8,35.0,20.0,10.29,13.49,-16.54
404,"aden,ye",76.43,100.0,0.0,8.57,12.79,45.03
405,"gigmoto,ph",81.25,99.0,68.0,12.88,13.78,124.39
406,"la asuncion,ve",77.11,100.0,64.0,16.58,11.03,-63.86
407,"honavar,in",71.66,88.0,0.0,5.28,14.28,74.45
408,"bosaso,so",74.41,100.0,0.0,9.31,11.28,49.18
409,"cabra,ph",82.06,98.0,32.0,24.11,13.89,120.05
410,"kampong thum,kh",73.15,77.0,8.0,7.78,12.71,104.89
411,"abu zabad,sd",59.78,67.0,0.0,2.98,12.35,29.25
412,"key west,us",14.74,92.0,90.0,19.46,47.93,-96.78
413,"sanchor,in",53.66,62.0,0.0,2.75,24.76,71.77
414,"umm lajj,sa",63.65,100.0,0.0,5.73,25.02,37.27
416,"cockburn town,bs",76.16,100.0,56.0,7.4,24.03,-74.52
417,"islampur,in",60.68,93.0,56.0,5.61,26.26,88.19
418,"sabha,ly",38.09,87.0,0.0,6.06,27.03,14.43
419,"amarpur,in",59.0,100.0,90.0,2.75,23.52,91.65
420,"shingu,jp",51.8,66.0,75.0,4.7,33.72,135.99
422,"godda,in",48.8,85.0,8.0,2.75,24.83,87.21
423,"dali,cn",31.48,100.0,0.0,2.08,25.6,100.24
426,"haflong,in",47.99,87.0,0.0,1.48,25.18,93.03
427,"arona,es",58.33,59.0,20.0,8.05,28.1,-16.68
428,"matamoros,mx",68.0,52.0,75.0,2.3,25.53,-103.23
429,"saltillo,mx",57.2,58.0,75.0,2.26,25.42,-100.99
430,"myitkyina,mm",52.18,93.0,0.0,2.26,25.38,97.4
431,"los llanos de aridane,es",64.4,63.0,36.0,8.05,28.66,-17.92
432,"hirara,jp",70.72,94.0,75.0,2.24,24.8,125.28
433,"sheoganj,in",49.88,77.0,0.0,5.1,25.14,73.07
434,"hasaki,jp",35.92,80.0,75.0,2.24,35.73,140.83
435,"chabahar,ir",68.15,100.0,12.0,4.32,25.29,60.65
436,"longyan,cn",43.81,89.0,0.0,2.53,25.1,117.03
437,"key largo,us",71.6,88.0,1.0,4.7,25.09,-80.45
438,"xingyi,cn",40.61,89.0,88.0,5.5,24.19,102.82
439,"asyut,eg",57.2,67.0,0.0,12.75,27.18,31.19
440,"santa catarina de tepehuanes,mx",58.61,61.0,48.0,2.75,25.34,-105.72
441,"guerrero negro,mx",65.95,46.0,0.0,7.9,27.97,-114.04
442,"clyde river,ca",-21.63,95.0,12.0,4.99,70.47,-68.59
443,"dudinka,ru",0.65,74.0,80.0,18.07,69.41,86.18
444,"ust-kuyga,ru",-29.1,46.0,48.0,5.99,70.0,135.55
445,"finnsnes,no",21.0,85.0,80.0,1.12,69.23,17.98
446,"kayerkan,ru",-3.36,76.0,80.0,14.67,69.35,87.76
447,"sorland,no",35.6,69.0,75.0,20.8,67.67,12.69
448,"andenes,no",33.8,86.0,76.0,20.8,69.31,16.12
449,"rajula,in",59.87,80.0,0.0,9.13,21.04,71.44
450,"talcher,in",51.77,86.0,0.0,2.71,20.95,85.21
451,"basudebpur,in",67.48,100.0,0.0,4.76,21.14,86.74
453,"sosua,do",75.2,94.0,75.0,4.7,19.77,-70.52
454,"guanajuato,mx",71.6,30.0,75.0,4.7,21.02,-101.25
455,"santa maria,cv",69.8,64.0,75.0,19.46,16.6,-22.9
456,"honolulu,us",79.23,45.0,75.0,16.11,21.3,-157.86
457,"basco,ph",75.53,100.0,100.0,19.08,20.45,121.97
458,"bardoli,in",60.05,88.0,8.0,2.19,21.12,73.11
460,"hoa binh,vn",62.6,77.0,76.0,5.82,20.81,105.34
461,"bucerias,mx",78.8,83.0,90.0,9.17,20.76,-105.33
462,"lakeside,us",62.89,77.0,90.0,14.99,37.61,-77.48
463,"multan,pk",50.0,93.0,0.0,3.38,30.2,71.47
465,"qalyub,eg",62.6,55.0,0.0,12.75,30.18,31.21
466,"ribeira grande,pt",64.91,98.0,20.0,12.82,38.52,-28.7
467,"marsh harbour,bs",74.41,100.0,44.0,7.4,26.54,-77.06
468,"pokhara,np",44.08,70.0,64.0,1.36,28.21,83.99
469,"nichinan,jp",46.4,93.0,75.0,6.93,31.65,131.31
470,"saint george,bm",69.8,73.0,40.0,9.17,32.38,-64.68
471,"surt,ly",60.1,100.0,56.0,15.84,31.21,16.59
472,"khandbari,np",30.53,71.0,32.0,1.3,27.38,87.21
473,"marrakesh,ma",50.0,61.0,0.0,2.48,31.63,-7.99
474,"severo-kurilsk,ru",24.73,100.0,56.0,12.37,50.68,156.12
475,"harnai,pk",37.01,65.0,0.0,2.53,30.1,67.94
477,"nalut,ly",42.14,97.0,44.0,5.55,31.86,10.98
478,"hamilton,bm",69.8,73.0,40.0,9.17,32.3,-64.78
479,"waddan,ly",39.53,88.0,36.0,5.77,29.16,16.14
481,"santa cruz de la palma,es",64.4,63.0,36.0,5.82,28.68,-17.76
482,"kahului,us",75.65,54.0,20.0,19.46,20.89,-156.47
484,"liberty,us",34.54,74.0,90.0,7.85,39.64,-84.93
485,"san felipe,mx",64.28,100.0,0.0,17.69,31.02,-114.84
487,"del rio,us",60.8,29.0,1.0,6.93,29.36,-100.9
488,"tezu,in",49.97,80.0,0.0,1.7,27.93,96.16
489,"turayf,sa",48.2,39.0,0.0,3.36,31.68,38.65
490,"tacoronte,es",57.52,81.0,8.0,9.17,28.48,-16.41
491,"khorramshahr,ir",60.8,87.0,0.0,6.93,30.43,48.18
492,"shenjiamen,cn",52.13,99.0,32.0,27.2,29.96,122.3
493,"arifwala,pk",51.55,88.0,32.0,2.59,30.29,73.06
494,"mirabad,af",39.8,86.0,0.0,2.82,30.44,61.84
495,"abadan,ir",60.8,87.0,0.0,6.93,30.36,48.26
496,"anqing,cn",40.43,79.0,0.0,12.26,30.51,117.04
497,"palm coast,us",73.4,73.0,5.0,5.82,29.55,-81.22
498,"wadi musa,jo",56.36,91.0,92.0,2.04,30.32,35.48
499,"anju,cn",33.05,62.0,0.0,9.57,31.75,113.2
500,"marsa matruh,eg",57.2,87.0,75.0,9.17,31.35,27.25
503,"camalu,mx",63.61,37.0,0.0,4.05,30.85,-116.07
504,"severodvinsk,ru",21.2,100.0,90.0,8.95,64.56,39.82
505,"olden,no",30.13,96.0,88.0,2.37,61.84,6.81
506,"rognan,no",33.8,86.0,75.0,25.28,67.1,15.4
508,"verkhnetulomskiy,ru",-9.41,76.0,20.0,2.24,68.61,31.8
509,"bjerkvik,no",20.43,97.0,75.0,3.36,68.55,17.56
510,"snezhnogorsk,ru",-9.41,76.0,20.0,2.24,69.19,33.23
512,"bjornevatn,no",-4.01,91.0,20.0,4.7,69.67,29.98
514,"tromso,no",30.2,92.0,75.0,13.87,69.65,18.96
515,"lima,pe",65.0,73.0,0.0,2.26,-12.06,-77.04
516,"quatre cocos,mu",73.4,94.0,20.0,6.93,-20.21,57.76
517,"nampula,mz",71.48,94.0,36.0,3.83,-15.12,39.26
518,"nyimba,zm",74.45,81.0,24.0,3.2,-14.56,30.81
519,"sao francisco,br",73.4,100.0,40.0,6.93,-25.65,-53.85
520,"coracora,pe",46.64,55.0,24.0,2.71,-15.02,-73.78
522,"katherine,au",82.4,74.0,0.0,5.82,-14.47,132.26
523,"urubicha,bo",80.3,77.0,68.0,4.54,-15.63,-63.08
524,"menongue,ao",62.66,90.0,76.0,4.32,-14.66,17.68
526,"conde,br",76.75,89.0,48.0,6.62,-11.81,-37.61
528,"luganville,vu",80.66,100.0,0.0,4.76,-15.51,167.18
529,"alyangula,au",84.85,100.0,32.0,9.31,-13.85,136.42
530,"pontes e lacerda,br",75.17,75.0,0.0,4.76,-15.23,-59.33
532,"namibe,ao",68.42,100.0,36.0,8.41,-15.19,12.15
533,"putina,pe",60.8,41.0,40.0,6.93,-14.91,-69.87
534,"sola,vu",78.32,100.0,68.0,0.58,-13.88,167.55
535,"cuamba,mz",69.68,94.0,48.0,2.53,-14.8,36.54
536,"labuhan,id",78.41,88.0,8.0,3.76,-2.54,115.51
537,"tautira,pf",89.6,62.0,75.0,12.75,-17.73,-149.15
538,"antsohihy,mg",71.84,100.0,92.0,3.83,-14.88,47.99
539,"kununurra,au",80.6,83.0,8.0,4.88,-15.77,128.74
540,"trinidad,bo",78.8,94.0,75.0,4.7,-14.83,-64.9
541,"mareeba,au",84.2,58.0,40.0,9.17,-16.99,145.42
542,"buritis,br",79.22,58.0,76.0,1.81,-15.62,-46.42
543,"cairns,au",84.2,58.0,40.0,9.17,-16.92,145.77
544,"samarai,pg",83.86,97.0,68.0,10.42,-10.62,150.67
545,"grand gaube,mu",73.4,94.0,20.0,6.93,-20.01,57.66
546,"port hedland,au",86.0,79.0,0.0,3.36,-20.31,118.58
547,"pisco,pe",71.6,78.0,0.0,23.04,-13.71,-76.2
548,"machinga,mw",70.58,96.0,48.0,2.71,-15.18,35.3
549,"banjar,id",72.47,94.0,88.0,3.38,-7.37,108.54
550,"chongwe,zm",66.31,94.0,8.0,2.59,-15.33,28.68
551,"kirakira,sb",83.27,100.0,0.0,4.27,-10.46,161.92
553,"isilkul,ru",11.63,82.0,80.0,8.9,54.9,71.26
554,"tugolesskiy bor,ru",22.48,89.0,88.0,17.36,55.55,39.82
555,"velizh,ru",35.3,94.0,92.0,17.81,55.61,31.2
556,"nanortalik,gl",29.95,98.0,64.0,6.78,60.14,-45.24
557,"chapais,ca",5.0,84.0,90.0,4.7,49.78,-74.86
558,"yurga,ru",13.66,86.0,76.0,6.51,55.71,84.93
559,"chumikan,ru",-12.18,78.0,20.0,4.09,54.72,135.31
560,"saint-augustin,ca",21.2,92.0,90.0,10.29,45.63,-73.98
561,"lebork,pl",46.4,87.0,90.0,42.5,54.54,17.75
562,"krapivinskiy,ru",15.8,92.0,0.0,4.47,55.0,86.81
566,"zelenogorskiy,ru",15.8,92.0,0.0,4.47,55.03,87.0
567,"pokosnoye,ru",8.35,77.0,68.0,3.38,55.53,101.05
568,"vamdrup,dk",48.2,93.0,92.0,19.46,55.43,9.28
569,"port-cartier,ca",12.2,78.0,90.0,17.22,50.03,-66.88
570,"ustka,pl",45.25,93.0,92.0,37.2,54.58,16.86
571,"zykovo,ru",21.89,91.0,88.0,16.35,55.24,40.35
572,"dorokhovo,ru",26.6,86.0,75.0,13.42,55.55,36.37
573,"slave lake,ca",15.8,78.0,90.0,10.29,55.28,-114.77
574,"girvan,gb",53.6,87.0,75.0,18.34,55.24,-4.86
575,"flin flon,ca",-16.61,62.0,20.0,8.05,54.77,-101.88
576,"nizhnyaya poyma,ru",7.31,83.0,68.0,2.26,56.16,97.2
577,"troitskoye,ru",13.93,85.0,76.0,2.53,52.98,84.68
578,"palmer,us",21.92,49.0,1.0,20.8,61.6,-149.11
579,"vestmannaeyjar,is",35.03,100.0,92.0,11.03,63.44,-20.27
580,"komsomolskoye,ru",28.4,100.0,90.0,2.24,43.38,44.29
581,"tynda,ru",-29.28,44.0,0.0,4.21,55.15,124.74
582,"havre-saint-pierre,ca",6.8,77.0,90.0,18.34,50.23,-63.6
583,"krasnoyarka,ru",5.0,71.0,0.0,4.47,55.33,73.1
584,"okha,ru",-9.07,84.0,0.0,9.64,53.59,142.95
585,"sobolevo,ru",30.17,94.0,92.0,24.11,54.43,31.9
586,"magadan,ru",-41.81,72.0,0.0,13.33,59.56,150.8
587,"argayash,ru",6.8,84.0,0.0,6.71,55.49,60.88
589,"chara,ru",-21.4,80.0,36.0,1.59,56.9,118.26
591,"zhigalovo,ru",8.21,69.0,64.0,4.72,54.81,105.15
593,"klyuchi,ru",6.77,71.0,0.0,11.03,52.25,79.17
594,"la ronge,ca",-13.01,69.0,20.0,5.82,55.1,-105.3
595,"grindavik,is",31.28,92.0,75.0,5.82,63.84,-22.43
596,"sexsmith,ca",21.2,67.0,75.0,16.11,55.35,-118.78
597,"coquimbo,cl",62.6,77.0,0.0,8.05,-29.95,-71.34
599,"nhlangano,sz",64.19,100.0,100.0,2.08,-27.11,31.2
600,"guaruja,br",74.62,73.0,0.0,8.05,-23.99,-46.26
601,"vallenar,cl",65.9,77.0,0.0,2.08,-28.58,-70.76
603,"yulara,au",95.0,10.0,0.0,10.29,-25.24,130.99
604,"presidencia roque saenz pena,ar",76.97,72.0,64.0,20.65,-26.79,-60.44
605,"keetmanshoop,na",63.7,27.0,0.0,7.0,-26.57,18.15
606,"noumea,nc",82.4,48.0,90.0,4.7,-22.28,166.46
607,"diego de almagro,cl",67.03,43.0,0.0,2.53,-26.39,-70.05
608,"bethanien,na",59.83,37.0,0.0,6.11,-26.5,17.16
609,"vao,nc",75.4,100.0,68.0,9.31,-22.67,167.48
610,"xai-xai,mz",76.34,98.0,88.0,15.68,-25.04,33.64
611,"inhambane,mz",77.24,97.0,12.0,5.77,-23.87,35.38
612,"santiago del estero,ar",74.18,63.0,92.0,11.92,-27.8,-64.26
613,"roma,au",89.57,45.0,0.0,7.0,-26.57,148.79
614,"porto belo,br",75.2,100.0,90.0,3.71,-27.15,-48.54
615,"caboolture,au",82.4,54.0,20.0,10.29,-27.08,152.95
616,"dalby,au",80.6,61.0,0.0,4.7,-27.18,151.26
617,"alice springs,au",96.8,20.0,0.0,6.93,-23.7,133.88
618,"villiers,za",60.01,83.0,0.0,9.75,-27.03,28.6
619,"poya,nc",76.34,100.0,8.0,9.53,-21.35,165.16
620,"rodionovo-nesvetayskaya,ru",32.0,73.0,40.0,4.47,47.61,39.7
621,"veselynove,ua",19.33,81.0,12.0,5.88,47.36,31.24
622,"leninskoye,ru",15.8,85.0,90.0,8.95,54.82,82.85
623,"pannonhalma,hu",41.85,93.0,90.0,6.93,47.55,17.75
624,"sydney mines,ca",33.8,74.0,90.0,16.11,46.24,-60.22
625,"sulgen,ch",38.75,93.0,90.0,10.29,47.55,9.18
627,"koszeg,hu",40.43,80.0,0.0,10.87,47.39,16.54
628,"polohy,ua",18.88,87.0,8.0,3.04,47.48,36.26
629,"polson,us",8.35,70.0,0.0,1.52,47.69,-114.16
630,"mandan,us",18.46,67.0,90.0,14.99,46.83,-100.89
631,"amvrosiyivka,ua",18.65,82.0,24.0,6.85,47.79,38.48
632,"fuyu,cn",-12.22,58.0,0.0,6.89,47.79,124.46
633,"caraquet,ca",19.4,92.0,90.0,4.7,47.79,-64.94
635,"novikovo,ru",23.11,90.0,68.0,9.42,51.15,37.89
636,"aksarayskiy,ru",26.6,100.0,90.0,6.71,46.79,48.01
637,"haileybury,ca",17.6,100.0,90.0,3.36,47.44,-79.64
638,"mala tokmachka,ua",30.2,92.0,75.0,4.47,47.53,35.9
639,"ulaanbaatar,mn",-13.01,75.0,75.0,2.24,47.92,106.92
640,"telenesti,md",33.8,74.0,40.0,5.82,47.5,28.37
641,"miles city,us",14.0,66.0,90.0,16.11,46.41,-105.84
642,"cheney,us",23.05,67.0,1.0,3.36,47.49,-117.58
643,"huarmey,pe",68.42,70.0,8.0,3.83,-10.07,-78.15
644,"pemba,mz",84.44,98.0,36.0,21.16,-12.97,40.52
645,"mpika,zm",62.53,94.0,68.0,3.31,-11.84,31.4
646,"barreiras,br",68.38,97.0,48.0,3.53,-12.14,-45.0
647,"pangoa,pe",69.32,95.0,8.0,0.81,-12.12,-73.0
649,"presidente medici,br",76.79,92.0,8.0,1.97,-11.18,-61.9
650,"camacupa,ao",63.11,92.0,68.0,3.53,-12.02,17.48
651,"coruripe,br",76.52,100.0,92.0,11.14,-10.12,-36.18
653,"nhulunbuy,au",87.8,70.0,75.0,10.29,-12.18,136.78
654,"pimenta bueno,br",75.44,95.0,8.0,1.97,-11.68,-61.19
655,"benguela,ao",72.29,100.0,32.0,4.76,-12.58,13.4
656,"puerto maldonado,pe",84.2,74.0,0.0,2.24,-12.59,-69.19
657,"kuito,ao",61.36,96.0,48.0,4.88,-12.38,16.94
658,"tingi,tz",79.22,100.0,8.0,2.48,-11.3,35.03
659,"masuguru,tz",79.49,70.0,0.0,9.75,-11.37,38.42
660,"ambanja,mg",67.75,100.0,92.0,2.53,-13.68,48.45
661,"soe,id",73.78,93.0,64.0,1.19,-9.86,124.28
662,"rodrigues alves,br",77.0,94.0,75.0,5.61,-7.74,-72.65
663,"port moresby,pg",84.4,94.0,8.0,5.5,-9.47,147.16
664,"taguatinga,br",68.0,88.0,40.0,3.36,-15.83,-48.06
665,"cap malheureux,mu",73.4,94.0,20.0,6.93,-19.98,57.61
666,"ambilobe,mg",70.9,100.0,92.0,1.52,-13.19,49.05
667,"praya,id",77.0,94.0,75.0,5.82,-8.71,116.27
668,"hualmay,pe",66.71,85.0,24.0,4.83,-11.1,-77.61
669,"mufulira,zm",63.38,93.0,12.0,2.75,-12.55,28.24
670,"chimbote,pe",67.7,84.0,56.0,7.9,-9.08,-78.59
671,"nanyamba,tz",75.35,82.0,0.0,8.79,-10.68,39.83
672,"kasama,zm",63.61,94.0,24.0,4.38,-10.21,31.19
673,"corrente,br",70.76,88.0,8.0,2.86,-17.45,-44.68
674,"mazamari,pe",68.42,94.0,32.0,0.81,-11.33,-74.53
675,"maningrida,au",77.24,100.0,92.0,8.52,-12.05,134.23
677,"maceio,br",75.2,94.0,75.0,10.29,-9.67,-35.74
678,"luanda,ao",75.2,78.0,0.0,4.7,-8.83,13.24
679,"iberia,pe",82.46,65.0,48.0,4.83,-11.41,-69.49
680,"malanje,ao",64.96,90.0,32.0,4.27,-9.54,16.35
681,"songea,tz",63.7,97.0,48.0,2.53,-10.68,35.65
682,"nachingwea,tz",74.81,77.0,0.0,6.4,-10.37,38.76
684,"daru,pg",85.75,82.0,56.0,9.31,-9.07,143.21
685,"lufilufi,ws",91.4,66.0,75.0,6.93,-13.87,-171.6
686,"mwense,zm",65.05,92.0,36.0,2.59,-10.39,28.7
687,"kingsland,us",69.93,88.0,1.0,7.85,30.8,-81.69
688,"fatehpur,pk",49.7,87.0,36.0,2.82,31.18,71.21
689,"aja,eg",61.13,63.0,80.0,12.15,30.94,31.29
690,"havelock,us",64.13,93.0,1.0,18.34,34.88,-76.9
691,"banepa,np",46.4,100.0,40.0,3.36,27.63,85.52
692,"oyama,jp",33.8,74.0,75.0,2.24,36.31,139.8
693,"ziarat,pk",21.53,73.0,0.0,5.5,30.38,67.73
694,"camara de lobos,pt",60.8,67.0,40.0,8.05,32.63,-16.97
695,"lufkin,us",46.92,61.0,1.0,3.36,31.34,-94.73
696,"puerto penasco,mx",64.82,84.0,0.0,6.78,31.32,-113.53
697,"san angelo,us",57.2,28.0,1.0,9.17,31.46,-100.44
698,"canico,pt",60.8,67.0,40.0,8.05,32.63,-16.85
700,"zabol,ir",48.26,100.0,0.0,2.08,31.03,61.49
701,"saint simons,us",66.4,88.0,1.0,8.3,31.14,-81.39
702,"busayra,jo",56.36,91.0,92.0,2.04,30.74,35.61
703,"taihe,cn",41.69,77.0,0.0,5.84,26.8,114.92
704,"praxedis guerrero,mx",51.8,25.0,1.0,11.41,31.37,-106.02
705,"maneadero,mx",63.7,21.0,68.0,2.71,31.72,-116.57
706,"taltal,cl",62.53,60.0,0.0,2.75,-25.41,-70.49
708,"sao sebastiao,br",80.35,83.0,68.0,3.98,-3.15,-58.36
709,"mariental,na",82.4,15.0,0.0,3.36,-24.63,17.97
710,"mount isa,au",91.4,38.0,0.0,5.82,-20.73,139.49
711,"walvis bay,na",60.8,77.0,8.0,6.89,-22.95,14.51
712,"maltahohe,na",62.75,36.0,0.0,7.78,-24.83,16.98
713,"salta,ar",64.24,93.0,75.0,8.05,-24.79,-65.41
714,"emerald,au",87.32,47.0,0.0,6.78,-23.53,148.16
715,"peruibe,br",79.76,95.0,48.0,14.27,-24.32,-47.0
716,"caravelas,br",78.95,100.0,12.0,14.83,-17.73,-39.27
717,"hervey bay,au",80.98,85.0,0.0,4.5,-25.3,152.85
718,"biloela,au",84.26,55.0,0.0,5.1,-24.4,150.51
719,"temba,za",73.4,60.0,36.0,2.24,-25.38,28.26
720,"pouembout,nc",82.19,56.0,8.0,4.21,-21.12,164.9
721,"salym,ru",15.5,74.0,80.0,10.8,60.06,71.48
722,"vologda,ru",21.98,90.0,92.0,16.69,59.22,39.89
723,"lyuban,ru",34.31,87.0,80.0,9.24,59.35,31.24
724,"belyy yar,ru",15.8,85.0,80.0,4.88,53.6,91.39
725,"ust-maya,ru",-43.23,0.0,56.0,2.82,60.42,134.54
726,"tumba,se",36.45,89.0,0.0,11.41,59.2,17.83
727,"stornoway,gb",50.0,87.0,92.0,4.7,58.21,-6.39
728,"tilichiki,ru",-38.32,77.0,8.0,2.08,60.47,166.1
729,"solnechnyy,ru",-17.35,75.0,36.0,2.71,50.72,136.64
730,"irtyshskiy,ru",11.86,87.0,76.0,8.52,58.33,68.13
731,"teguldet,ru",10.64,86.0,64.0,3.87,57.31,88.17
732,"kodinsk,ru",-0.66,77.0,64.0,2.82,58.6,99.18
733,"ulefoss,no",35.6,100.0,8.0,3.36,59.29,9.26
734,"katrineholm,se",35.64,100.0,40.0,8.05,59.0,16.21
735,"lesosibirsk,ru",8.3,88.0,88.0,3.31,58.22,92.49
736,"homer,us",43.65,52.0,40.0,26.4,59.64,-151.54
737,"ustyuzhna,ru",24.46,84.0,92.0,17.47,58.84,36.43
738,"hay river,ca",-0.41,77.0,75.0,5.82,60.82,-115.79
739,"ullapool,gb",48.17,99.0,92.0,15.39,57.9,-5.16
740,"boguchany,ru",-4.48,66.0,8.0,2.48,58.38,97.46
741,"sheksna,ru",22.48,91.0,92.0,23.44,59.21,38.5
742,"hofn,is",35.93,100.0,88.0,4.61,64.25,-15.21
743,"bogovarovo,ru",20.23,89.0,80.0,6.85,58.98,47.02
744,"nizhniy kuranakh,ru",-13.35,58.0,48.0,3.6,58.84,125.49
745,"tevriz,ru",11.86,88.0,88.0,7.29,57.51,72.4
746,"okhotsk,ru",-28.2,100.0,0.0,7.56,59.36,143.24
747,"arman,ru",-41.81,72.0,0.0,4.27,59.7,150.17
748,"ola,ru",-41.81,72.0,0.0,11.25,59.58,151.3
749,"novaya lyalya,ru",20.18,73.0,76.0,8.79,59.05,60.6
750,"darovskoy,ru",18.74,90.0,92.0,10.36,58.77,47.96
751,"kropotkin,ru",26.35,87.0,92.0,2.98,45.43,40.58
752,"chagoda,ru",24.91,89.0,88.0,13.56,59.16,35.33
753,"yantal,ru",1.73,66.0,56.0,3.98,56.85,105.25
754,"haines junction,ca",-19.83,51.0,0.0,2.75,60.75,-137.51
755,"kingisepp,ru",33.5,90.0,88.0,11.77,59.38,28.61
756,"palana,ru",6.77,76.0,56.0,3.09,59.08,159.95
757,"high level,ca",10.4,85.0,90.0,8.34,58.52,-117.13
758,"naples,us",74.03,83.0,1.0,3.36,26.14,-81.79
759,"barmer,in",43.49,77.0,0.0,2.82,25.74,71.4
761,"masaurhi,in",52.45,93.0,32.0,2.82,25.35,85.03
762,"bhagalpur,in",51.73,84.0,20.0,2.71,25.25,86.98
763,"kotri,pk",49.03,80.0,0.0,2.82,25.36,68.31
764,"naugachhia,in",51.73,84.0,20.0,2.71,25.4,87.1
765,"maibong,in",47.99,87.0,0.0,1.48,25.3,93.13
766,"takhatgarh,in",49.88,77.0,0.0,5.1,25.32,73.0
767,"key biscayne,us",73.85,60.0,75.0,9.17,25.69,-80.16
768,"bocas del toro,pa",77.69,100.0,76.0,6.62,9.33,-82.25
771,"bosconia,co",77.78,49.0,0.0,4.09,9.97,-73.89
772,"batticaloa,lk",77.33,100.0,88.0,4.83,7.71,81.69
773,"point fortin,tt",77.0,83.0,20.0,8.05,10.16,-61.68
774,"goundi,td",72.83,30.0,0.0,9.53,9.36,17.37
775,"sao filipe,cv",73.64,95.0,92.0,18.41,14.9,-24.5
777,"rio claro,tt",77.0,83.0,20.0,8.05,10.31,-61.18
778,"ko samui,th",77.0,88.0,20.0,7.23,9.54,99.94
779,"jos,ng",60.5,57.0,12.0,5.73,9.92,8.9
780,"quibor,ve",74.09,65.0,8.0,9.31,9.93,-69.62
781,"bousso,td",79.9,23.0,0.0,14.27,10.48,16.71
782,"nedjo,et",48.58,69.0,0.0,2.53,9.5,35.5
783,"ferkessedougou,ci",65.36,38.0,0.0,8.79,9.6,-5.2
784,"tecoanapa,mx",84.2,79.0,40.0,5.82,16.99,-99.26
785,"ranong,th",68.0,94.0,20.0,4.88,9.96,98.62
786,"gebre guracha,et",37.82,74.0,0.0,3.31,9.8,38.4
787,"garowe,so",63.43,52.0,0.0,7.85,8.41,48.48
788,"macrohon,ph",81.29,91.0,0.0,12.26,10.08,124.94
789,"barcelona,ve",78.95,98.0,0.0,16.96,10.14,-64.69
790,"tagusao,ph",77.2,100.0,88.0,18.86,9.19,117.81
791,"portobelo,pa",83.3,70.0,20.0,9.17,9.55,-79.65
792,"rach gia,vn",74.81,83.0,0.0,9.86,10.02,105.08
794,"bell ville,ar",68.65,62.0,0.0,9.53,-32.63,-62.69
795,"port pirie,au",69.8,64.0,75.0,21.92,-33.18,138.01
796,"rosario,ar",73.4,46.0,0.0,10.29,-32.96,-60.66
797,"oranjemund,na",61.13,98.0,0.0,15.12,-28.55,16.43
798,"lujan,ar",65.45,21.0,64.0,21.09,-46.57,-67.67
799,"ambovombe,mg",72.56,98.0,44.0,3.49,-25.18,46.09
800,"rio cuarto,ar",69.8,52.0,0.0,9.17,-33.13,-64.35
801,"forbes,au",86.78,58.0,8.0,5.61,-33.38,148.01
802,"nelson bay,au",86.0,51.0,0.0,6.93,-32.72,152.14
803,"singleton,au",86.0,51.0,24.0,6.93,-32.57,151.17
804,"whyalla,au",69.8,64.0,75.0,21.92,-33.04,137.58
805,"collie,au",67.25,51.0,0.0,13.82,-33.36,116.15
807,"giyani,za",69.73,99.0,92.0,7.85,-23.32,30.73
808,"pindamonhangaba,br",71.6,83.0,75.0,5.82,-22.93,-45.46
809,"antofagasta,cl",68.0,72.0,75.0,13.87,-23.65,-70.4
811,"windhoek,na",68.0,40.0,0.0,5.82,-22.57,17.08
812,"moindou,nc",82.4,48.0,90.0,4.7,-21.69,165.68
813,"filadelfia,py",79.13,91.0,56.0,8.12,-22.35,-60.04
814,"henties bay,na",59.56,100.0,88.0,4.99,-22.12,14.28
815,"calama,cl",69.8,13.0,0.0,26.4,-22.46,-68.93
816,"otjimbingwe,na",62.75,68.0,12.0,3.53,-22.35,16.13
817,"tadine,nc",77.33,95.0,80.0,10.8,-21.55,167.88
819,"vondrozo,mg",68.69,95.0,32.0,2.53,-22.82,47.32
820,"broome,au",89.6,52.0,75.0,4.7,-17.97,122.23
822,"charters towers,au",79.4,86.0,8.0,4.99,-20.07,146.27
823,"camanducaia,br",71.6,83.0,75.0,5.82,-22.76,-46.14
824,"moranbah,au",86.6,45.0,0.0,5.39,-22.0,148.04
825,"gladstone,au",84.4,64.0,0.0,6.11,-23.84,151.26
826,"yeppoon,au",87.8,45.0,8.0,6.93,-23.13,150.74
827,"farafangana,mg",77.2,100.0,20.0,13.56,-22.82,47.83
828,"roebourne,au",84.08,71.0,0.0,7.56,-20.77,117.15
829,"mathathane,bw",68.65,100.0,92.0,4.61,-22.27,28.75
830,"koumac,nc",81.65,69.0,76.0,1.3,-20.56,164.28
831,"isangel,vu",77.65,100.0,92.0,13.11,-19.55,169.27
832,"esmeraldas,ec",84.2,58.0,75.0,16.11,-1.87,-79.8
833,"mahibadhoo,mv",81.29,100.0,88.0,14.61,3.78,72.97
834,"moyale,et",65.81,38.0,0.0,9.08,3.52,39.05
835,"yumbe,ug",62.35,59.0,8.0,4.09,3.47,31.25
836,"salinopolis,br",80.26,100.0,80.0,9.35,-0.61,-47.36
837,"san martin,co",76.07,91.0,68.0,2.26,6.56,-76.85
838,"boa vista,br",84.2,58.0,20.0,11.41,2.82,-60.67
839,"mbaiki,cf",72.2,87.0,8.0,2.59,3.87,17.99
840,"wattegama,lk",68.11,92.0,88.0,2.82,7.35,80.68
841,"jardim,br",77.11,82.0,76.0,8.86,-21.48,-56.15
842,"san-pedro,ci",70.49,93.0,0.0,3.09,4.75,-6.64
843,"lethem,gy",85.3,57.0,24.0,16.69,3.38,-59.8
844,"sabak,my",77.0,94.0,75.0,7.11,3.77,100.99
845,"limbe,cm",77.88,94.0,75.0,2.24,4.02,9.21
847,"nola,cf",69.73,95.0,0.0,2.19,3.52,16.05
848,"banda aceh,id",75.44,96.0,64.0,2.37,5.56,95.32
849,"bonthe,sl",73.33,87.0,0.0,4.99,7.53,-12.5
850,"lodwar,ke",66.71,51.0,0.0,3.53,3.12,35.6
851,"grand-lahou,ci",70.04,89.0,0.0,3.71,5.24,-5.0
852,"langsa,id",69.28,100.0,92.0,2.08,4.47,97.97
853,"mega,et",55.55,49.0,0.0,7.63,4.06,38.32
854,"sarangani,ph",82.55,100.0,48.0,8.23,5.4,125.46
855,"inirida,co",80.3,79.0,20.0,1.97,3.87,-67.92
856,"sembakung,id",76.97,95.0,80.0,1.97,3.82,117.25
857,"mosquera,co",59.0,77.0,20.0,8.05,4.71,-74.23
858,"pekan,my",75.2,94.0,75.0,4.7,3.49,103.39
860,"kieta,pg",79.94,100.0,80.0,2.04,-6.22,155.63
861,"coihaique,cl",49.73,53.0,90.0,12.75,-45.58,-72.07
862,"comodoro rivadavia,ar",69.8,32.0,0.0,17.22,-45.87,-67.48
863,"dunedin,nz",73.73,59.0,0.0,3.83,-45.87,170.5
864,"waitati,nz",73.73,59.0,0.0,3.83,-45.75,170.57
865,"angoche,mz",83.23,100.0,48.0,14.16,-16.23,39.91
866,"bindura,zw",62.8,88.0,8.0,2.71,-17.3,31.33
867,"buritizeiro,br",78.73,65.0,8.0,7.07,-17.37,-44.96
870,"santa rosa,bo",54.56,100.0,92.0,1.52,-20.7,-64.83
871,"eenhana,na",64.91,96.0,56.0,7.85,-17.48,16.34
872,"belmonte,br",71.66,98.0,92.0,6.29,-26.84,-53.58
873,"norsup,vu",83.09,81.0,80.0,5.55,-16.07,167.38
874,"san rafael,bo",81.92,72.0,12.0,9.13,-12.93,-64.87
875,"tarata,pe",45.74,52.0,0.0,1.86,-17.47,-70.03
877,"quelimane,mz",77.0,94.0,75.0,12.75,-17.88,36.89
878,"mocuba,mz",73.55,96.0,64.0,3.6,-16.84,36.99
879,"tsaratanana,mg",70.81,97.0,80.0,3.2,-16.8,47.65
880,"san carlos,bo",75.71,91.0,80.0,3.49,-17.4,-63.73
881,"atherton,au",86.0,51.0,40.0,8.05,-17.27,145.48
882,"joao pinheiro,br",73.33,71.0,12.0,3.04,-17.74,-46.17
883,"innisfail,au",80.93,58.0,0.0,4.5,-17.52,146.03
884,"mackay,au",84.2,58.0,0.0,8.05,-21.15,149.2
885,"bowen,au",84.2,58.0,75.0,6.93,-20.01,148.25
886,"amparafaravola,mg",66.71,96.0,92.0,2.59,-17.68,48.22
887,"nsanje,mw",76.48,85.0,48.0,4.05,-16.92,35.26
888,"siavonga,zm",75.71,82.0,8.0,1.7,-16.54,28.71
889,"poum,nc",77.96,100.0,0.0,9.42,-20.23,164.02
890,"terre-de-bas,gp",77.0,73.0,0.0,5.82,15.85,-61.64
891,"ratnagiri,in",77.24,100.0,0.0,5.32,16.98,73.3
892,"palasa,in",71.57,100.0,32.0,6.22,18.77,84.42
894,"nong bua,th",67.43,76.0,0.0,7.11,15.87,100.58
895,"bani,do",77.0,83.0,20.0,4.7,18.28,-70.33
896,"mao,td",69.73,46.0,0.0,14.38,14.12,15.31
897,"mekhe,sn",67.07,38.0,80.0,11.77,15.11,-16.62
898,"san mateo del mar,mx",82.01,85.0,0.0,31.61,16.21,-94.98
899,"san jeronimo,mx",78.8,11.0,5.0,6.93,29.37,-110.79
900,"kyaikkami,mm",67.03,90.0,0.0,2.48,16.08,97.57
901,"asmara,er",41.15,80.0,0.0,1.86,15.34,38.93
903,"sal rei,cv",69.8,64.0,75.0,19.46,16.18,-22.92
904,"sayyan,ye",21.89,60.0,0.0,2.08,15.17,44.32
906,"aloleng,ph",81.2,93.0,0.0,2.08,16.13,119.78
907,"black river,jm",80.6,74.0,20.0,9.17,18.03,-77.85
908,"phibun mangsahan,th",64.4,100.0,0.0,14.16,15.24,105.23
909,"manzanillo,mx",84.2,79.0,40.0,5.82,19.05,-104.32
910,"tarrafal,cv",71.6,64.0,40.0,23.04,15.28,-23.77
911,"mendoza,ar",69.8,22.0,0.0,3.36,-32.89,-68.84
912,"rio tercero,ar",67.43,40.0,0.0,7.0,-32.17,-64.11
913,"parkes,au",87.86,49.0,0.0,7.4,-33.14,148.18
914,"butterworth,za",60.01,100.0,76.0,1.19,-32.33,28.14
915,"babra,in",51.95,84.0,0.0,4.54,21.84,71.3
916,"aswan,eg",68.0,56.0,0.0,5.82,24.09,32.9
917,"kiri buru,in",47.54,82.0,0.0,2.3,22.08,85.35
918,"baripada,in",54.74,87.0,0.0,5.5,21.93,86.73
919,"jaleswar,in",59.38,99.0,0.0,6.4,21.8,87.22
920,"bilma,ne",54.65,51.0,0.0,16.17,18.69,12.92
921,"saiha,in",56.0,95.0,0.0,2.71,22.49,92.98
922,"nautla,mx",68.06,100.0,68.0,27.69,20.22,-96.78
923,"villa de reyes,mx",64.4,39.0,75.0,4.7,21.8,-100.93
924,"maymyo,mm",51.8,87.0,0.0,2.75,22.03,96.47
925,"wahiawa,us",79.3,64.0,90.0,13.87,21.5,-158.02
926,"bharuch,in",58.03,88.0,0.0,2.59,21.71,73.0
927,"huicheng,cn",57.2,93.0,0.0,12.26,23.03,116.29
928,"condado,cu",74.26,78.0,20.0,1.12,21.88,-79.84
929,"tuyen quang,vn",55.64,100.0,80.0,2.71,21.82,105.22
930,"tuxpan,mx",80.6,51.0,40.0,16.11,19.56,-103.38
931,"sechura,pe",72.47,77.0,0.0,14.67,-5.56,-80.82
932,"vikindu,tz",80.6,83.0,40.0,11.41,-6.98,39.3
934,"sao raimundo das mangabeiras,br",75.71,82.0,24.0,3.2,-7.02,-45.48
936,"tual,id",80.93,100.0,80.0,8.86,-5.67,132.75
938,"kasongo-lunda,cd",68.2,96.0,68.0,2.08,-6.48,16.82
939,"cabedelo,br",78.8,78.0,0.0,6.93,-6.97,-34.84
940,"merauke,id",87.01,75.0,56.0,10.92,-8.49,140.4
941,"meulaboh,id",78.05,100.0,44.0,4.27,4.14,96.13
942,"manicore,br",75.85,95.0,64.0,2.86,-5.81,-61.3
943,"soyo,ao",75.89,94.0,80.0,4.99,-6.13,12.37
944,"eirunepe,br",78.01,94.0,24.0,2.19,-6.66,-69.87
946,"kibakwe,tz",62.8,97.0,0.0,2.37,-6.71,36.37
947,"maneromango,tz",80.6,83.0,40.0,11.41,-7.2,38.78
949,"atambua,id",78.91,100.0,80.0,5.06,-9.11,124.89
951,"goroka,pg",66.08,90.0,20.0,0.96,-6.07,145.39
952,"bom jardim,br",75.2,78.0,40.0,13.87,-7.8,-35.59
953,"finschhafen,pg",78.01,91.0,76.0,3.49,-6.6,147.85
954,"panguna,pg",74.95,98.0,92.0,3.09,-6.32,155.48
955,"kandrian,pg",83.72,83.0,36.0,2.48,-6.21,149.55
957,"eten,pe",73.4,78.0,0.0,19.46,-6.91,-79.86
958,"izazi,tz",65.23,97.0,48.0,1.81,-7.24,35.72
959,"manono,cd",69.01,95.0,48.0,4.32,-7.3,27.4
961,"le vauclin,mq",78.15,83.0,40.0,11.41,14.55,-60.84
962,"vieux-habitants,gp",77.0,73.0,0.0,5.82,16.06,-61.77
963,"varca,in",82.06,97.0,0.0,5.84,15.22,73.92
964,"bristol,us",46.98,87.0,75.0,9.17,36.59,-82.19
966,"viransehir,tr",48.71,83.0,56.0,8.86,37.24,39.76
967,"serik,tr",48.2,57.0,75.0,19.46,36.92,31.1
968,"virginia beach,us",66.52,68.0,75.0,19.46,36.85,-75.98
969,"korla,cn",-1.65,62.0,0.0,1.03,41.76,86.15
970,"sakaiminato,jp",39.87,70.0,75.0,6.93,35.55,133.23
971,"siderno,it",49.44,89.0,0.0,4.7,38.28,16.3
972,"sanlucar de barrameda,es",48.97,93.0,0.0,19.93,36.78,-6.35
973,"iiyama,jp",21.08,68.0,36.0,1.48,36.89,138.38
975,"xining,cn",3.44,54.0,0.0,4.32,36.62,101.77
977,"nantucket,us",52.16,87.0,90.0,25.28,41.28,-70.1
979,"yumen,cn",7.0,59.0,0.0,4.27,40.29,97.04
980,"camacha,pt",61.81,72.0,0.0,2.24,33.08,-16.33
981,"ahuimanu,us",79.25,57.0,20.0,8.05,21.44,-157.84
982,"dortyol,tr",53.6,87.0,75.0,3.36,36.86,36.23
983,"miami,us",73.8,60.0,75.0,9.17,25.77,-80.19
984,"saint george,us",32.27,63.0,90.0,4.7,38.54,-90.31
985,"ronda,es",54.43,67.0,20.0,11.41,36.74,-5.17
986,"liberal,us",35.58,47.0,1.0,12.75,37.04,-100.92
987,"suruc,tr",46.4,75.0,75.0,6.93,36.98,38.42
988,"vila franca do campo,pt",60.8,77.0,20.0,5.82,37.72,-25.43
989,"takab,ir",46.01,34.0,0.0,11.92,36.4,47.11
990,"seoul,kr",39.56,86.0,90.0,6.93,37.57,126.98
991,"kamaishi,jp",32.0,92.0,75.0,2.24,39.28,141.86
992,"nemuro,jp",34.45,100.0,0.0,1.81,43.32,145.57
993,"sarakhs,ir",55.4,50.0,12.0,9.17,36.54,61.16
994,"zanjan,ir",45.65,40.0,0.0,14.12,36.67,48.48
995,"nyuzen,jp",42.66,52.0,75.0,10.29,36.93,137.5
996,"jinan,cn",30.62,51.0,44.0,10.09,36.65,117.11
997,"martinsville,us",61.77,93.0,90.0,3.36,36.69,-79.87
998,"ceyhan,tr",60.73,77.0,75.0,12.75,37.03,35.82
999,"baiyin,cn",5.0,77.0,0.0,2.24,36.55,104.13
1000,"fortuna,us",51.17,71.0,1.0,3.36,40.6,-124.16
1001,"marmaris,tr",48.04,66.0,40.0,20.8,36.85,28.27
1002,"taos,us",39.88,37.0,1.0,25.28,36.41,-105.57
1003,"lindsay,us",55.98,44.0,1.0,4.7,36.2,-119.09
1004,"luangwa,zm",63.38,93.0,12.0,2.75,-12.88,28.25
1006,"phalombe,mw",71.35,94.0,80.0,2.26,-15.81,35.65
1007,"lusaka,zm",65.9,98.0,8.0,2.82,-15.42,28.28
1008,"rio gallegos,ar",57.2,35.0,0.0,13.87,-51.62,-69.22
1009,"santa cruz del norte,cu",74.3,83.0,20.0,9.17,23.15,-81.92
1010,"radhanpur,in",53.8,78.0,0.0,2.82,23.83,71.61
1011,"ray,in",51.8,76.0,0.0,2.75,23.68,85.05
1012,"kulti,in",51.28,86.0,0.0,3.27,23.73,86.84
1013,"jati,pk",47.0,76.0,0.0,2.82,24.35,68.27
1014,"jamuria,in",51.28,86.0,0.0,3.27,23.71,87.08
1015,"simao,cn",37.28,81.0,24.0,2.04,22.76,100.79
1016,"aizawl,in",52.31,92.0,0.0,1.97,23.74,92.72
1017,"nuevo progreso,mx",75.62,85.0,64.0,12.15,17.14,-95.05
1018,"cedral,mx",63.61,53.0,32.0,5.61,23.82,-100.72
1021,"chenghai,cn",57.2,93.0,0.0,9.13,23.46,116.77
1022,"sagua la grande,cu",73.4,78.0,20.0,6.93,22.81,-80.07
1023,"ha giang,vn",46.82,93.0,68.0,1.74,22.83,104.99
1024,"tahta,eg",57.2,67.0,0.0,12.75,26.77,31.5
1025,"tayoltita,mx",75.13,46.0,92.0,1.59,24.11,-105.93
1026,"marondera,zw",64.01,94.0,8.0,2.53,-18.19,31.55
1027,"abaete,br",74.5,75.0,76.0,1.86,-19.16,-45.45
1029,"tsumeb,na",66.4,91.0,92.0,2.26,-19.25,17.72
1030,"ouegoa,nc",81.65,69.0,76.0,1.3,-20.34,164.44
1031,"san jose,bo",75.2,88.0,75.0,17.22,-17.94,-63.35
1032,"arica,cl",70.61,60.0,0.0,6.93,-18.48,-70.32
1033,"ondangwa,na",65.9,85.0,76.0,7.85,-17.91,15.98
1034,"haapiti,pf",89.6,62.0,75.0,12.75,-17.57,-149.87
1035,"anjozorobe,mg",64.4,93.0,75.0,1.12,-18.4,47.88
1036,"mairana,bo",62.84,97.0,68.0,2.19,-18.12,-63.96
1037,"ingham,au",81.02,90.0,44.0,6.22,-18.65,146.16
1038,"presidente olegario,br",71.12,83.0,20.0,1.86,-18.42,-46.42
1039,"ayr,au",83.68,79.0,8.0,8.08,-19.58,147.4
1041,"karratha,au",84.08,71.0,0.0,7.56,-20.74,116.85
1042,"kwekwe,zw",65.18,96.0,8.0,5.73,-18.93,29.81
